[{"id": "2440", "name": "Alko Akaa Toijala", "address": "Valtatie 1, 37800 TOIJALA", "latitude": 61.16837289999999, "longitude": 23.867546}, {"id": "2277", "name": "Alko Alaj\u00e4rvi", "address": "Yritt\u00e4j\u00e4ntie 5, 62900 ALAJ\u00c4RVI", "latitude": 63.0021814, "longitude": 23.8048531}, {"id": "2282", "name": "Alko Alavus Tuuri", "address": "Onnentie 7, 63610 TUURI", "latitude": 62.6032191, "longitude": 23.7270598}, {"id": "2274", "name": "Alko Alavus keskusta", "address": "V\u00e4ht\u00e4rintie 2, 63300 ALAVUS", "latitude": 62.5872099, "longitude": 23.6139662}, {"id": "2428", "name": "Alko Asikkala V\u00e4\u00e4ksy", "address": "Maakaupantie 1, 17200 V\u00c4\u00c4KSY", "latitude": 61.1729184, "longitude": 25.5465928}, {"id": "2223", "name": "Alko Aura", "address": "Savirannankuja 2, 21380 AURA", "latitude": 60.64734739999999, "longitude": 22.5912591}, {"id": "2888", "name": "Alko Enonteki\u00f6 Hetta", "address": "Kustaavantie 1, 99400 ENONTEKI\u00d6", "latitude": 68.3845884, "longitude": 23.6393267}, {"id": "2890", "name": "Alko Enonteki\u00f6 Kilpisj\u00e4rvi", "address": "K\u00e4sivarrentie 14205, 99490 KILPISJ\u00c4RVI", "latitude": 69.0165129, "longitude": 20.8766587}, {"id": "2154", "name": "Alko Espoo Espoon keskus Entresse", "address": "Siltakatu 11, 02770 ESPOO", "latitude": 60.20371369999999, "longitude": 24.6592761}, {"id": "2156", "name": "Alko Espoo Espoonlahti Lippulaiva", "address": "Espoonlahdenkatu 4, 02320 ESPOO", "latitude": 60.1490208, "longitude": 24.6561418}, {"id": "2157", "name": "Alko Espoo Kauklahti", "address": "R\u00e4\u00e4velintie 2, 02780 ESPOO", "latitude": 60.1883236, "longitude": 24.5876245}, {"id": "2153", "name": "Alko Espoo Lepp\u00e4vaara Sello", "address": "Lepp\u00e4vaarankatu 3-9, 02600 ESPOO", "latitude": 60.21859109999999, "longitude": 24.8108101}, {"id": "2149", "name": "Alko Espoo L\u00e4hderanta", "address": "L\u00e4hderanta 1, 02720 ESPOO", "latitude": 60.24088019999999, "longitude": 24.740898}, {"id": "2160", "name": "Alko Espoo Mankkaa", "address": "Sinikalliontie 1-3, 02630 ESPOO", "latitude": 60.20525240000001, "longitude": 24.7679864}, {"id": "2158", "name": "Alko Espoo Matinkyl\u00e4 Iso Omena", "address": "Piispansilta 11, 02230 ESPOO", "latitude": 60.1611656, "longitude": 24.7371393}, {"id": "2155", "name": "Alko Espoo Niittykumpu", "address": "Merituulentie 36, 02200 ESPOO", "latitude": 60.17029040000001, "longitude": 24.7641338}, {"id": "2150", "name": "Alko Espoo Olari Prisma", "address": "Komeetankatu 2, 02210 ESPOO", "latitude": 60.1664109, "longitude": 24.7338426}, {"id": "2195", "name": "Alko Espoo Otaniemi", "address": "Otaniementie 12, 02150 ESPOO", "latitude": 60.1846499, "longitude": 24.8256169}, {"id": "2152", "name": "Alko Espoo Tapiola Ainoa", "address": "Tapionaukio 4, 02100 ESPOO", "latitude": 60.1761796, "longitude": 24.8046807}, {"id": "2266", "name": "Alko Eura", "address": "Satakunnankatu 4, 27510 EURA", "latitude": 61.13046579999999, "longitude": 22.126002}, {"id": "2264", "name": "Alko Eurajoki", "address": "Riikontie 2, 27100 EURAJOKI", "latitude": 61.202714, "longitude": 21.7277866}, {"id": "2406", "name": "Alko Forssa Kutomo", "address": "Yhti\u00f6nkatu, 30100 FORSSA", "latitude": 60.8080102, "longitude": 23.624136}, {"id": "2405", "name": "Alko Forssa Prismakeskus", "address": "Tapulikuja 6, 30100 FORSSA", "latitude": 60.8119226, "longitude": 23.64101}, {"id": "2807", "name": "Alko Haapaj\u00e4rvi", "address": "Kirkkokatu 1, 85800 HAAPAJ\u00c4RVI", "latitude": 63.7475381, "longitude": 25.31535}, {"id": "2811", "name": "Alko Haapavesi", "address": "Vanhatie 48, 86600 HAAPAVESI", "latitude": 64.1375659, "longitude": 25.36477}, {"id": "2772", "name": "Alko Hamina", "address": "Isoympyr\u00e4nkatu 15, 49400 HAMINA", "latitude": 60.5690373, "longitude": 27.1950117}, {"id": "2498", "name": "Alko Hankasalmi", "address": "Keskustie 35, 41520 HANKASALMI", "latitude": 62.3890621, "longitude": 26.4355809}, {"id": "2171", "name": "Alko Hanko", "address": "Revellinkatu 2, 10900 HANKO", "latitude": 59.82834889999999, "longitude": 22.9658712}, {"id": "2262", "name": "Alko Harjavalta", "address": "Teollisuuskatu 4, 29200 HARJAVALTA", "latitude": 61.3095111, "longitude": 22.136544}, {"id": "2418", "name": "Alko Hartola", "address": "Keskustie 50, 19600 HARTOLA", "latitude": 61.57914489999999, "longitude": 26.0220857}, {"id": "2413", "name": "Alko Hausj\u00e4rvi Oitti", "address": "Tammitie 5, 12100 OITTI", "latitude": 60.78813109999999, "longitude": 25.0268908}, {"id": "2414", "name": "Alko Heinola Citymarket", "address": "Hevossaarentie 1, 18100 HEINOLA", "latitude": 61.1920513, "longitude": 25.9951405}, {"id": "2411", "name": "Alko Heinola keskusta", "address": "Savontie 5, 18100 HEINOLA", "latitude": 61.2029742, "longitude": 26.0304606}, {"id": "2727", "name": "Alko Hein\u00e4vesi", "address": "Kermantie 2, 79700 HEIN\u00c4VESI", "latitude": 62.4256487, "longitude": 28.6324966}, {"id": "2116", "name": "Alko Helsinki Arabianranta Arabia", "address": "H\u00e4meentie 109-111 B 9, 00560 HELSINKI", "latitude": 60.20247699999999, "longitude": 24.967587}, {"id": "2104", "name": "Alko Helsinki Bulevardi", "address": "Hietalahdenranta 5, 00120 HELSINKI", "latitude": 60.1607071, "longitude": 24.9305192}, {"id": "2120", "name": "Alko Helsinki Hakaniemi Ympyr\u00e4talo", "address": "Siltasaarenkatu 18-20, 00530 HELSINKI", "latitude": 60.1803697, "longitude": 24.9488565}, {"id": "2131", "name": "Alko Helsinki Herttoniemi Hertta", "address": "Hiiht\u00e4j\u00e4ntie 2, 00810 HELSINKI", "latitude": 60.19452999999999, "longitude": 25.0266845}, {"id": "2137", "name": "Alko Helsinki It\u00e4keskus Easton", "address": "Kauppakartanonkatu 3, 00930 HELSINKI", "latitude": 60.20995319999999, "longitude": 25.0861237}, {"id": "2133", "name": "Alko Helsinki It\u00e4keskus Itis Stockmann", "address": "It\u00e4katu 1, 00930 HELSINKI", "latitude": 60.2131451, "longitude": 25.0851999}, {"id": "2134", "name": "Alko Helsinki It\u00e4keskus Prisma", "address": "Vanhanlinnantie 1, 00900 HELSINKI", "latitude": 60.21361479999999, "longitude": 25.0877526}, {"id": "2146", "name": "Alko Helsinki Jakom\u00e4ki", "address": "Jakom\u00e4entie 1, 00770 HELSINKI", "latitude": 60.2619301, "longitude": 25.0744289}, {"id": "2196", "name": "Alko Helsinki Kalasatama Redi", "address": "Hermannin rantatie 5A, PL 2, 00580 HELSINKI", "latitude": 60.18730949999999, "longitude": 24.9777875}, {"id": "2138", "name": "Alko Helsinki Kalasatama Tukkutori", "address": "Vanha Talvitie 12, 00580 HELSINKI", "latitude": 60.1921724, "longitude": 24.9760695}, {"id": "2107", "name": "Alko Helsinki Kallio", "address": "Helsinginkatu 15, 00500 HELSINKI", "latitude": 60.1873666, "longitude": 24.9549448}, {"id": "2132", "name": "Alko Helsinki Kannelm\u00e4ki Kaari", "address": "Kantelettarentie 1, 00420 HELSINKI", "latitude": 60.2350532, "longitude": 24.8913429}, {"id": "2103", "name": "Alko Helsinki Kasarmitori", "address": "Fabianinkatu 9-11, 00130 HELSINKI", "latitude": 60.1643956, "longitude": 24.9502365}, {"id": "2303", "name": "Alko Helsinki Katajanokka", "address": "Kruunuvuorenkatu 4, 00160 HELSINKI", "latitude": 60.1665019, "longitude": 24.9652824}, {"id": "2142", "name": "Alko Helsinki Konalan Portti", "address": "Hankasuontie 2, 00390 HELSINKI", "latitude": 60.2447896, "longitude": 24.8466534}, {"id": "2135", "name": "Alko Helsinki Kontula", "address": "Ostostie 4, 00940 HELSINKI", "latitude": 60.2366488, "longitude": 25.0840003}, {"id": "2117", "name": "Alko Helsinki Kruununhaka", "address": "Maurinkatu 8-12, 00170 HELSINKI", "latitude": 60.17479419999999, "longitude": 24.9594676}, {"id": "2110", "name": "Alko Helsinki K\u00e4pyl\u00e4", "address": "Panuntie 11, 00620 HELSINKI", "latitude": 60.22175300000001, "longitude": 24.9482773}, {"id": "2197", "name": "Alko Helsinki Laajasalo", "address": "Yliskyl\u00e4n puistokatu 4, 00840 HELSINKI", "latitude": 60.1798541, "longitude": 25.0516348}, {"id": "2119", "name": "Alko Helsinki Lauttasaari", "address": "Lauttasaarentie 28, 00200 HELSINKI", "latitude": 60.1599643, "longitude": 24.8810025}, {"id": "2130", "name": "Alko Helsinki Malmi Nova", "address": "Ala-Malmin tori 5, 00700 HELSINKI", "latitude": 60.2511956, "longitude": 25.012587}, {"id": "2139", "name": "Alko Helsinki Mannerheimintie", "address": "Mannerheimintie 96, 00250 HELSINKI", "latitude": 60.1879929, "longitude": 24.9180534}, {"id": "2140", "name": "Alko Helsinki Mellunm\u00e4ki", "address": "Pallaksentie 2, 00970 HELSINKI", "latitude": 60.23812100000001, "longitude": 25.1104259}, {"id": "2118", "name": "Alko Helsinki Munkkivuori", "address": "Raumantie 1, 00350 HELSINKI", "latitude": 60.2056169, "longitude": 24.879516}, {"id": "2199", "name": "Alko Helsinki Myllypuro", "address": "Kiviparintie 2, 00920 HELSINKI", "latitude": 60.22438690000001, "longitude": 25.0747978}, {"id": "2121", "name": "Alko Helsinki Pakila", "address": "Pakilantie 46-48, 00660 HELSINKI", "latitude": 60.2365284, "longitude": 24.9287522}, {"id": "2198", "name": "Alko Helsinki Pasila Tripla", "address": "Tornikuja 1 B, 00520 HELSINKI", "latitude": 60.1984962, "longitude": 24.9311575}, {"id": "2141", "name": "Alko Helsinki Pikku Huopalahti", "address": "Tilkanvierto 7, 00300 HELSINKI", "latitude": 60.1975335, "longitude": 24.9002181}, {"id": "2123", "name": "Alko Helsinki Pit\u00e4j\u00e4nm\u00e4ki", "address": "Takomotie 33, 00380 HELSINKI", "latitude": 60.2181951, "longitude": 24.8694966}, {"id": "2115", "name": "Alko Helsinki Ruoholahti", "address": "It\u00e4merenkatu 21, 00180 HELSINKI", "latitude": 60.1635569, "longitude": 24.9101661}, {"id": "2143", "name": "Alko Helsinki Taivallahti", "address": "Pohjoinen Hesperiankatu 33, 00260 HELSINKI", "latitude": 60.1771189, "longitude": 24.9165592}, {"id": "2122", "name": "Alko Helsinki T\u00f6\u00f6l\u00f6ntori", "address": "Sandelsinkatu 4, 00260 HELSINKI", "latitude": 60.178665, "longitude": 24.9239451}, {"id": "2106", "name": "Alko Helsinki Ullanlinna", "address": "Vuorimiehenkatu 33, 00140 HELSINKI", "latitude": 60.1594097, "longitude": 24.9437187}, {"id": "2126", "name": "Alko Helsinki Viikki Prisma", "address": "Viikintori 3, 00790 HELSINKI", "latitude": 60.2275495, "longitude": 25.0085986}, {"id": "2136", "name": "Alko Helsinki Vuosaari Columbus", "address": "Vuotie 45, 00980 HELSINKI", "latitude": 60.2069143, "longitude": 25.1463826}, {"id": "2113", "name": "Alko Helsinki Wanha Kauppahalli", "address": "Etel\u00e4ranta, 00130 HELSINKI", "latitude": 60.1659614, "longitude": 24.952526}, {"id": "2102", "name": "Alko Helsinki keskusta Arkadia", "address": "Salomonkatu 1, 00100 HELSINKI", "latitude": 60.1707742, "longitude": 24.9348561}, {"id": "2105", "name": "Alko Helsinki keskusta Citycenter", "address": "Kaivokatu 8, 00100 HELSINKI", "latitude": 60.169795, "longitude": 24.9419824}, {"id": "2129", "name": "Alko Helsinki keskusta Etel\u00e4esplanadi", "address": "Etel\u00e4esplanadi 20 B, 00130 HELSINKI", "latitude": 60.167011, "longitude": 24.9453879}, {"id": "2144", "name": "Alko Helsinki keskusta Kamppi", "address": "Urho Kekkosen Katu 1 A 24, 00100 HELSINKI", "latitude": 60.16945800000001, "longitude": 24.933253}, {"id": "2128", "name": "Alko Helsinki keskusta Stockmann", "address": "Aleksanterinkatu 52.b, 00100 HELSINKI", "latitude": 60.16872489999999, "longitude": 24.9424048}, {"id": "2425", "name": "Alko Hollola Salpakangas", "address": "Kansankatu 8, 15870 HOLLOLA", "latitude": 60.98882390000001, "longitude": 25.5191659}, {"id": "2268", "name": "Alko Huittinen", "address": "S\u00e4rm\u00e4nkatu 1, 32700 HUITTINEN", "latitude": 61.1781956, "longitude": 22.6977992}, {"id": "2824", "name": "Alko Hyrynsalmi", "address": "Hyryntie 45, 89400 HYRYNSALMI", "latitude": 64.67541, "longitude": 28.5051305}, {"id": "2186", "name": "Alko Hyvink\u00e4\u00e4 Willa Citymarket", "address": "H\u00e4meenkatu 9, 05800 HYVINK\u00c4\u00c4", "latitude": 60.63220269999999, "longitude": 24.8637073}, {"id": "2188", "name": "Alko Hyvink\u00e4\u00e4 Willa Prisma", "address": "Torikatu 9, 05800 HYVINK\u00c4\u00c4", "latitude": 60.63052690000001, "longitude": 24.8661241}, {"id": "2475", "name": "Alko H\u00e4meenkyr\u00f6", "address": "Kyreltie 2, 39200 KYR\u00d6SKOSKI", "latitude": 61.6572837, "longitude": 23.1805614}, {"id": "2402", "name": "Alko H\u00e4meenlinna Goodman", "address": "Kaivokatu 7, 13100 H\u00c4MEENLINNA", "latitude": 60.99441419999999, "longitude": 24.4569526}, {"id": "2403", "name": "Alko H\u00e4meenlinna Hauho", "address": "Hauhontie 16, 14700 HAUHO", "latitude": 61.1709988, "longitude": 24.5627695}, {"id": "2417", "name": "Alko H\u00e4meenlinna Id\u00e4np\u00e4\u00e4", "address": "Laaniitynkatu 2, 13210 H\u00c4MEENLINNA", "latitude": 61.0067515, "longitude": 24.506568}, {"id": "2407", "name": "Alko H\u00e4meenlinna Lammi", "address": "Mommilantie 1, 16900 LAMMI", "latitude": 61.07978050000001, "longitude": 25.011147}, {"id": "2401", "name": "Alko H\u00e4meenlinna Tiiri\u00f6 Citymarket", "address": "Katsastusmiehentie 6, 13130 H\u00c4MEENLINNA", "latitude": 61.0076243, "longitude": 24.4210269}, {"id": "2300", "name": "Alko H\u00e4meenlinna Tiiri\u00f6 Prisma", "address": "Wartiam\u00e4entie 2, 13130 H\u00c4MEENLINNA", "latitude": 61.0119589, "longitude": 24.4136187}, {"id": "2840", "name": "Alko Ii", "address": "Kisatie 2, 91100 II", "latitude": 65.3218534, "longitude": 25.3754386}, {"id": "2741", "name": "Alko Iisalmi", "address": "Satamakatu 10, 74100 IISALMI", "latitude": 63.5560639, "longitude": 27.1900015}, {"id": "2769", "name": "Alko Iitti Kausala", "address": "Kauppakatu 13, 47400 KAUSALA", "latitude": 60.88884900000001, "longitude": 26.3411967}, {"id": "2438", "name": "Alko Ikaalinen", "address": "Teollisuustalontie 2, 39500 IKAALINEN", "latitude": 61.7619636, "longitude": 23.0720785}, {"id": "2271", "name": "Alko Ilmajoki", "address": "Kauppatie 20, 60800 ILMAJOKI", "latitude": 62.7303302, "longitude": 22.5787822}, {"id": "2708", "name": "Alko Ilomantsi", "address": "Mantsintie 1-3, 82900 ILOMANTSI", "latitude": 62.672344, "longitude": 30.93489259999999}, {"id": "2795", "name": "Alko Imatra Mansikkala", "address": "Karhum\u00e4enkatu 1, 55120 IMATRA", "latitude": 61.18924, "longitude": 28.7656853}, {"id": "2796", "name": "Alko Imatra Vuoksenniska", "address": "Torikatu 8, 55800 IMATRA", "latitude": 61.2246523, "longitude": 28.8355167}, {"id": "2851", "name": "Alko Inari Ivalo", "address": "Petsamontie 2, 99800 IVALO", "latitude": 68.6594659, "longitude": 27.5429248}, {"id": "2852", "name": "Alko Inari Saariselk\u00e4", "address": "Kelotie 2, 99830 SAARISELK\u00c4", "latitude": 68.4219047, "longitude": 27.4102694}, {"id": "2174", "name": "Alko Inkoo", "address": "Rantatie 3, 10210 INKOO", "latitude": 60.04348089999999, "longitude": 24.0064255}, {"id": "2404", "name": "Alko Janakkala Turenki", "address": "Harvialantie 5, 14200 TURENKI", "latitude": 60.92193739999999, "longitude": 24.648355}, {"id": "2705", "name": "Alko Joensuu Eno", "address": "Kauppatie 11, 81200 ENO", "latitude": 62.7980007, "longitude": 30.1499403}, {"id": "2702", "name": "Alko Joensuu K\u00e4pykangas Prisma", "address": "Voimatie 2, 80100 JOENSUU", "latitude": 62.6166125, "longitude": 29.77803299999999}, {"id": "2703", "name": "Alko Joensuu Pilkko Citymarket", "address": "Linjatie 2, 80140 JOENSUU", "latitude": 62.6296055, "longitude": 29.7030827}, {"id": "2701", "name": "Alko Joensuu keskusta Sokos", "address": "Rantakatu 19, 80100 JOENSUU", "latitude": 62.6015954, "longitude": 29.7655077}, {"id": "2246", "name": "Alko Jomala Maxinge Center", "address": "Sparv\u00e4gen 1, 22150 JOMALA", "latitude": 60.1299769, "longitude": 19.9333238}, {"id": "2497", "name": "Alko Joutsa", "address": "Yhdystie 9, 19650 JOUTSA", "latitude": 61.7433148, "longitude": 26.1069841}, {"id": "2717", "name": "Alko Juuka", "address": "Karjalantie 3 B, 83900 JUUKA", "latitude": 63.24753919999999, "longitude": 29.2626922}, {"id": "2725", "name": "Alko Juva", "address": "Piikkil\u00e4ntie 8, 51900 JUVA", "latitude": 61.896369, "longitude": 27.8555933}, {"id": "2493", "name": "Alko Jyv\u00e4skyl\u00e4 Keljo Keljon kauppakeskus", "address": "Kylm\u00e4lahdentie 6, 40500 JYV\u00c4SKYL\u00c4", "latitude": 62.2161704, "longitude": 25.7223505}, {"id": "2490", "name": "Alko Jyv\u00e4skyl\u00e4 Palokka Prisma", "address": "Palokanorsi 1, 40270 PALOKKA", "latitude": 62.2883924, "longitude": 25.7173702}, {"id": "2458", "name": "Alko Jyv\u00e4skyl\u00e4 Sepp\u00e4", "address": "Ahjokatu 3-5, 40320 JYV\u00c4SKYL\u00c4", "latitude": 62.2566852, "longitude": 25.7753737}, {"id": "2456", "name": "Alko Jyv\u00e4skyl\u00e4 Sepp\u00e4l\u00e4 Citymarket", "address": "Vasarakatu 29, 40320 JYV\u00c4SKYL\u00c4", "latitude": 62.26433290000001, "longitude": 25.7746947}, {"id": "2492", "name": "Alko Jyv\u00e4skyl\u00e4 Tourula Minimani", "address": "Vapaaherrantie 11, 40320 JYV\u00c4SKYL\u00c4", "latitude": 62.2541118, "longitude": 25.7641154}, {"id": "2495", "name": "Alko Jyv\u00e4skyl\u00e4 Vaajakoski", "address": "Asematie 1, 40800 VAAJAKOSKI", "latitude": 62.24779659999999, "longitude": 25.8760535}, {"id": "2491", "name": "Alko Jyv\u00e4skyl\u00e4 keskusta Sokkari", "address": "Asemakatu 8, 40100 JYV\u00c4SKYL\u00c4", "latitude": 62.2425805, "longitude": 25.7477855}, {"id": "2496", "name": "Alko J\u00e4ms\u00e4", "address": "Siltakatu 10, 42100 J\u00c4MS\u00c4", "latitude": 61.86629889999999, "longitude": 25.1942539}, {"id": "2183", "name": "Alko J\u00e4rvenp\u00e4\u00e4 Citymarket", "address": "Helsingintie 41, 04410 J\u00c4RVENP\u00c4\u00c4", "latitude": 60.47675580000001, "longitude": 25.103764}, {"id": "2185", "name": "Alko J\u00e4rvenp\u00e4\u00e4 Prisma", "address": "Rantakatu 5, 04400 J\u00c4RVENP\u00c4\u00c4", "latitude": 60.47024630000001, "longitude": 25.0839856}, {"id": "2210", "name": "Alko Kaarina", "address": "Hovirinnantie 5, 20780 KAARINA", "latitude": 60.40734, "longitude": 22.3620982}, {"id": "2218", "name": "Alko Kaarina Piikki\u00f6", "address": "Lukkarintie 2, 21500 PIIKKI\u00d6", "latitude": 60.42573480000001, "longitude": 22.514114}, {"id": "2757", "name": "Alko Kaavi", "address": "Kaavintie 5, 73600 KAAVI", "latitude": 62.97463149999999, "longitude": 28.4806821}, {"id": "2821", "name": "Alko Kajaani Prisma", "address": "Veturitie 1, 87100 KAJAANI", "latitude": 64.2203296, "longitude": 27.7475484}, {"id": "2825", "name": "Alko Kajaani keskusta Citymarket", "address": "Kauppakatu 10, 87100 KAJAANI", "latitude": 64.2234154, "longitude": 27.7353717}, {"id": "2802", "name": "Alko Kalajoki", "address": "Merenojantie 2, 85100 KALAJOKI", "latitude": 64.26117239999999, "longitude": 23.9491607}, {"id": "2476", "name": "Alko Kangasala Prisma", "address": "M\u00e4kirinteentie 10, 36220 KANGASALA", "latitude": 61.4753078, "longitude": 23.9790359}, {"id": "2467", "name": "Alko Kangasala keskusta", "address": "Finnentie 1, 36200 KANGASALA", "latitude": 61.46193119999999, "longitude": 24.068731}, {"id": "2723", "name": "Alko Kangasniemi", "address": "Otto Mannisen tie 10, 51200 KANGASNIEMI", "latitude": 61.987954, "longitude": 26.6423023}, {"id": "2260", "name": "Alko Kankaanp\u00e4\u00e4", "address": "Asemakatu 2, 38700 KANKAANP\u00c4\u00c4", "latitude": 61.8123992, "longitude": 22.3770468}, {"id": "2801", "name": "Alko Kannus", "address": "Torikuja 3, 69100 KANNUS", "latitude": 63.9017618, "longitude": 23.9179016}, {"id": "2178", "name": "Alko Karkkila", "address": "M\u00e4ntyl\u00e4nkatu 1, 03600 KARKKILA", "latitude": 60.53412549999999, "longitude": 24.2321625}, {"id": "2484", "name": "Alko Karstula", "address": "Keskustie 2, 43500 KARSTULA", "latitude": 62.8798783, "longitude": 24.8028727}, {"id": "2281", "name": "Alko Kauhajoki", "address": "Puistotie 70, 61800 KAUHAJOKI", "latitude": 62.43323960000001, "longitude": 22.1800464}, {"id": "2283", "name": "Alko Kauhava Alah\u00e4rm\u00e4", "address": "Jorma Lillbackantie 21, 62300 KAUHAVA", "latitude": 63.229228, "longitude": 22.8461439}, {"id": "2275", "name": "Alko Kauhava keskusta", "address": "Heimolankuja 2, 62200 KAUHAVA", "latitude": 63.1006735, "longitude": 23.0532677}, {"id": "2165", "name": "Alko Kauniainen", "address": "Kauniaistentie 7, 02700 KAUNIAINEN", "latitude": 60.2101175, "longitude": 24.7289807}, {"id": "2806", "name": "Alko Kaustinen", "address": "Terveystie 1, 69600 KAUSTINEN", "latitude": 63.54834349999999, "longitude": 23.6903012}, {"id": "2865", "name": "Alko Kemi", "address": "Karjalahdenkatu / Prisma, 94600 KEMI", "latitude": 65.7427062, "longitude": 24.5793304}, {"id": "2885", "name": "Alko Kemij\u00e4rvi", "address": "Kirkkokatu 2-4, 98100 KEMIJ\u00c4RVI", "latitude": 66.7157441, "longitude": 27.4283881}, {"id": "2866", "name": "Alko Keminmaa", "address": "Jokisuuntie 8, 94450 KEMINMAA", "latitude": 65.792294, "longitude": 24.5242331}, {"id": "2235", "name": "Alko Kemi\u00f6nsaari Kemi\u00f6", "address": "Engelsbyntie 15, 25700 KEMI\u00d6", "latitude": 60.163755, "longitude": 22.7367627}, {"id": "2236", "name": "Alko Kemi\u00f6nsaari Taalintehdas Dalsbruk", "address": "Kolapakantie 2, 25900 TAALINTEHDAS", "latitude": 60.0209352, "longitude": 22.5078659}, {"id": "2835", "name": "Alko Kempele", "address": "Myllytie 3, 90440 KEMPELE", "latitude": 64.9045781, "longitude": 25.5416663}, {"id": "2189", "name": "Alko Kerava Citymarket", "address": "Nikonkatu 1, 04200 KERAVA", "latitude": 60.4000429, "longitude": 25.1011655}, {"id": "2182", "name": "Alko Kerava Prisma", "address": "Kauppakaari 2, 04200 KERAVA", "latitude": 60.4018284, "longitude": 25.1038612}, {"id": "2482", "name": "Alko Keuruu", "address": "Tervantie 2, 42700 KEURUU", "latitude": 62.26078750000001, "longitude": 24.6931796}, {"id": "2159", "name": "Alko Kirkkonummi Munkinm\u00e4ki Prisma", "address": "Munkinm\u00e4entie 29, 02400 KIRKKONUMMI", "latitude": 60.11796810000001, "longitude": 24.4455026}, {"id": "2707", "name": "Alko Kitee", "address": "Kiteentie 6, 82500 KITEE", "latitude": 62.09676539999999, "longitude": 30.1421114}, {"id": "2881", "name": "Alko Kittil\u00e4 Levi", "address": "Leviraitti 18, 99130 SIRKKA", "latitude": 67.8088837, "longitude": 24.8065713}, {"id": "2878", "name": "Alko Kittil\u00e4 keskusta", "address": "Valtatie 68, 99100 KITTIL\u00c4", "latitude": 67.6609927, "longitude": 24.9039564}, {"id": "2744", "name": "Alko Kiuruvesi", "address": "Kukkom\u00e4entie 17, 74700 KIURUVESI", "latitude": 63.6504298, "longitude": 26.6188914}, {"id": "2267", "name": "Alko Kokem\u00e4ki", "address": "Haapionkatu 17, 32800 KOKEM\u00c4KI", "latitude": 61.2549637, "longitude": 22.3473691}, {"id": "2803", "name": "Alko Kokkola Kosila Prisma", "address": "Prismantie 1, 67700 KOKKOLA", "latitude": 63.8319576, "longitude": 23.1313872}, {"id": "2813", "name": "Alko Kokkola keskusta K-Supermarket", "address": "Rautatienkatu 10, 67100 KOKKOLA", "latitude": 63.8360548, "longitude": 23.1423457}, {"id": "2882", "name": "Alko Kolari Yll\u00e4s \u00c4k\u00e4slompolo", "address": "Sannanrannantie 3, 95970 \u00c4K\u00c4SLOMPOLO", "latitude": 67.6052587, "longitude": 24.1549203}, {"id": "2880", "name": "Alko Kolari keskusta", "address": "Jokijalantie 2 A, 95900 KOLARI", "latitude": 67.3351531, "longitude": 23.8204013}, {"id": "2783", "name": "Alko Kotka Karhula Lidl", "address": "Karhukuja 4, 48600 KOTKA", "latitude": 60.5134202, "longitude": 26.9354205}, {"id": "2781", "name": "Alko Kotka Pasaati", "address": "Kirkkokatu 7, 48100 KOTKA", "latitude": 60.46661949999999, "longitude": 26.9442281}, {"id": "2782", "name": "Alko Kotka Sutela Prisma", "address": "Hakam\u00e4entie 1, 48400 KOTKA", "latitude": 60.50065, "longitude": 26.8683333}, {"id": "2765", "name": "Alko Kouvola Inkeroinen", "address": "Lauttatie 1, 46900 INKEROINEN", "latitude": 60.6927855, "longitude": 26.8369871}, {"id": "2768", "name": "Alko Kouvola Korjala Prisma", "address": "Tommolankatu 9, 45130 KOUVOLA", "latitude": 60.872235, "longitude": 26.6590923}, {"id": "2762", "name": "Alko Kouvola Kuusankoski", "address": "Kymenlaaksonkatu 2, 45700 KUUSANKOSKI", "latitude": 60.9071836, "longitude": 26.6261454}, {"id": "2763", "name": "Alko Kouvola Tervaskangas", "address": "Tervasharjunkatu 1, 45720 KUUSANKOSKI", "latitude": 60.8757975, "longitude": 26.6524118}, {"id": "2761", "name": "Alko Kouvola Valkeala", "address": "Kalevantie 1, 45370 VALKEALA", "latitude": 60.92980929999999, "longitude": 26.7992251}, {"id": "2767", "name": "Alko Kouvola keskusta", "address": "Kouvolankatu 15, 45100 KOUVOLA", "latitude": 60.86770199999999, "longitude": 26.7073134}, {"id": "2280", "name": "Alko Kristiinankaupunki", "address": "Merikatu 4, 64100 KRISTIINANKAUPUNKI", "latitude": 62.27506820000001, "longitude": 21.3809047}, {"id": "2823", "name": "Alko Kuhmo", "address": "Torikatu 24, 88900 KUHMO", "latitude": 64.1277542, "longitude": 29.520415}, {"id": "2499", "name": "Alko Kuhmoinen", "address": "Toritie 54, 17800 KUHMOINEN", "latitude": 61.5657517, "longitude": 25.181172}, {"id": "2753", "name": "Alko Kuopio Haapaniemi", "address": "Tehdaskatu 12, 70620 KUOPIO", "latitude": 62.88033050000001, "longitude": 27.6676411}, {"id": "2758", "name": "Alko Kuopio Karttula", "address": "Kissakuusentie 2 C 21, 72100 KARTTULA", "latitude": 62.8951248, "longitude": 26.9735091}, {"id": "2305", "name": "Alko Kuopio Kolmisoppi Citymarket", "address": "Kolmisopentie 1, 70780 KUOPIO", "latitude": 62.8627996, "longitude": 27.615062}, {"id": "2739", "name": "Alko Kuopio Matkus Shopping Center", "address": "Matkuksentie 60 L 2, 70800 KUOPIO", "latitude": 62.8298575, "longitude": 27.5930551}, {"id": "2747", "name": "Alko Kuopio Nilsi\u00e4", "address": "Laitilantie 27, 73300 NILSI\u00c4", "latitude": 63.2010478, "longitude": 28.0900129}, {"id": "2751", "name": "Alko Kuopio Petonen", "address": "Petosentie 4, 70820 KUOPIO", "latitude": 62.84005709999999, "longitude": 27.6474822}, {"id": "2755", "name": "Alko Kuopio P\u00e4iv\u00e4ranta Citymarket", "address": "P\u00e4iv\u00e4rannantie 18, 70420 KUOPIO", "latitude": 62.95661010000001, "longitude": 27.691564}, {"id": "2754", "name": "Alko Kuopio Savilahti Prisma", "address": "Savilahdentie 10, PL 1050, 70700 KUOPIO", "latitude": 62.88652259999999, "longitude": 27.6310297}, {"id": "2752", "name": "Alko Kuopio keskusta Sokos", "address": "Haapaniemenkatu 24-26, 70110 KUOPIO", "latitude": 62.8922512, "longitude": 27.675475}, {"id": "2276", "name": "Alko Kurikka", "address": "Laurintie 22, 61300 KURIKKA", "latitude": 62.6162187, "longitude": 22.3948797}, {"id": "2279", "name": "Alko Kurikka Jalasj\u00e4rvi", "address": "Koskitie 21, 61600 JALASJ\u00c4RVI", "latitude": 62.48785099999999, "longitude": 22.750913}, {"id": "2220", "name": "Alko Kustavi", "address": "Pleikil\u00e4ntie 2, 23360 KUSTAVI", "latitude": 60.54529969999999, "longitude": 21.353803}, {"id": "2848", "name": "Alko Kuusamo Ruka", "address": "Rukanriutta 7, 93830 RUKATUNTURI", "latitude": 66.1649273, "longitude": 29.1211451}, {"id": "2846", "name": "Alko Kuusamo keskusta", "address": "Luomantie 1-3, 93600 KUUSAMO", "latitude": 65.9559824, "longitude": 29.1606861}, {"id": "2480", "name": "Alko Kyyj\u00e4rvi", "address": "Vaasantie 2, 43700 KYYJ\u00c4RVI", "latitude": 63.04252619999999, "longitude": 24.5605647}, {"id": "2410", "name": "Alko K\u00e4rk\u00f6l\u00e4 J\u00e4rvel\u00e4", "address": "Ruukintie 1, 16600 J\u00c4RVEL\u00c4", "latitude": 60.87068439999999, "longitude": 25.2760269}, {"id": "2814", "name": "Alko K\u00e4rs\u00e4m\u00e4ki", "address": "Haapaj\u00e4rventie 1, 86710 K\u00c4RS\u00c4M\u00c4KI", "latitude": 63.97427, "longitude": 25.7598218}, {"id": "2424", "name": "Alko Lahti Holma", "address": "Johanneksenkatu 4, 15240 LAHTI", "latitude": 61.0064795, "longitude": 25.6783069}, {"id": "2419", "name": "Alko Lahti Karisma", "address": "Kauppiaankatu 2, 15160 LAHTI", "latitude": 60.9815406, "longitude": 25.73725}, {"id": "2420", "name": "Alko Lahti Laune Citymarket", "address": "Ajokatu 53, 15500 LAHTI", "latitude": 60.9648897, "longitude": 25.6579488}, {"id": "2423", "name": "Alko Lahti Laune Prisma", "address": "Ajokatu 83, 15610 LAHTI", "latitude": 60.9599699, "longitude": 25.6562833}, {"id": "2426", "name": "Alko Lahti Nastola Rakokivi", "address": "Muurarintie 3, 15550 NASTOLA", "latitude": 60.93701129999999, "longitude": 25.9628492}, {"id": "2422", "name": "Alko Lahti Sokos", "address": "Aleksanterinkatu 19-21, 15110 LAHTI", "latitude": 60.9825608, "longitude": 25.6595489}, {"id": "2421", "name": "Alko Lahti Syke", "address": "Kauppakatu 18, 15140 LAHTI", "latitude": 60.98709399999999, "longitude": 25.6645578}, {"id": "2295", "name": "Alko Laihia", "address": "Kauppatie 6, 66400 LAIHIA", "latitude": 62.9789191, "longitude": 22.0077907}, {"id": "2222", "name": "Alko Laitila", "address": "Kauppakatu 3, 23800 LAITILA", "latitude": 60.8762458, "longitude": 21.6974651}, {"id": "2742", "name": "Alko Lapinlahti", "address": "Linnansalmentie 12, 73100 LAPINLAHTI", "latitude": 63.36640360000001, "longitude": 27.3981409}, {"id": "2270", "name": "Alko Lappaj\u00e4rvi", "address": "K\u00e4rn\u00e4ntie 6, 62600 LAPPAJ\u00c4RVI", "latitude": 63.21793650000001, "longitude": 23.6242822}, {"id": "2792", "name": "Alko Lappeenranta Citymarket", "address": "Toikansuontie 4, 53500 LAPPEENRANTA", "latitude": 61.0448554, "longitude": 28.2025914}, {"id": "2794", "name": "Alko Lappeenranta Joutseno", "address": "Keskuskatu 4, 54100 JOUTSENO", "latitude": 61.1174532, "longitude": 28.500871}, {"id": "2793", "name": "Alko Lappeenranta Leiri Prisma", "address": "Puhakankatu 9-11, 53600 LAPPEENRANTA", "latitude": 61.0505211, "longitude": 28.1783267}, {"id": "2791", "name": "Alko Lappeenranta keskusta Iso Kristiina", "address": "Kaivokatu 5, 53100 LAPPEENRANTA", "latitude": 61.0568111, "longitude": 28.1933229}, {"id": "2278", "name": "Alko Lapua", "address": "Latojantie 9, 62100 LAPUA", "latitude": 62.97453700000001, "longitude": 23.0236952}, {"id": "2494", "name": "Alko Laukaa", "address": "Vuoj\u00e4rventie 1, 41340 LAUKAA", "latitude": 62.41420290000001, "longitude": 25.9480677}, {"id": "2478", "name": "Alko Lemp\u00e4\u00e4l\u00e4 Ideapark", "address": "Ideaparkinkatu 4, 37570 LEMP\u00c4\u00c4L\u00c4", "latitude": 61.357677, "longitude": 23.7960018}, {"id": "2469", "name": "Alko Lemp\u00e4\u00e4l\u00e4 keskusta", "address": "Puistokatu 4, 37500 LEMP\u00c4\u00c4L\u00c4", "latitude": 61.3136325, "longitude": 23.7596798}, {"id": "2737", "name": "Alko Lepp\u00e4virta", "address": "Lepp\u00e4virrantie 26, 79100 LEPP\u00c4VIRTA", "latitude": 62.49122310000001, "longitude": 27.7851559}, {"id": "2715", "name": "Alko Lieksa", "address": "Pielisentie 34, 81700 LIEKSA", "latitude": 63.3185835, "longitude": 30.0235483}, {"id": "2211", "name": "Alko Lieto", "address": "Hyv\u00e4ttyl\u00e4ntie 2, 21420 LIETO", "latitude": 60.50400999999999, "longitude": 22.4572779}, {"id": "2820", "name": "Alko Liminka", "address": "Pitk\u00e4koskentie 15, 91900 LIMINKA", "latitude": 64.80715289999999, "longitude": 25.4553496}, {"id": "2704", "name": "Alko Liperi", "address": "Hein\u00e4vedentie 1, 83100 LIPERI", "latitude": 62.5285662, "longitude": 29.3844499}, {"id": "2176", "name": "Alko Lohja Ojamo", "address": "Reunakatu 1, 08200 LOHJA", "latitude": 60.22608289999999, "longitude": 24.0273528}, {"id": "2177", "name": "Alko Lohja keskusta Lohi", "address": "Suurlohjankatu 11, 08100 LOHJA", "latitude": 60.2509096, "longitude": 24.0692291}, {"id": "2238", "name": "Alko Loimaa", "address": "Aleksis Kivenkatu 7, 32200 LOIMAA", "latitude": 60.85608939999999, "longitude": 23.0441811}, {"id": "2409", "name": "Alko Loppi", "address": "Yhdystie 3, 12700 LOPPI", "latitude": 60.7207536, "longitude": 24.4418555}, {"id": "2192", "name": "Alko Loviisa", "address": "Mariankatu 33, 07900 LOVIISA", "latitude": 60.4586972, "longitude": 26.227487}, {"id": "2790", "name": "Alko Luum\u00e4ki Taavetti", "address": "Linnalantie 42, 54500 TAAVETTI", "latitude": 60.921952, "longitude": 27.5675537}, {"id": "2247", "name": "Alko Maarianhamina Sittkoff", "address": "Torggatan 13, 22100 MAARIANHAMINA", "latitude": 60.0985462, "longitude": 19.9424421}, {"id": "2306", "name": "Alko Masku", "address": "Kauppatie 2, 21250 MASKU", "latitude": 60.5687191, "longitude": 22.0981865}, {"id": "2255", "name": "Alko Merikarvia", "address": "Kauppatie 51, 29900 MERIKARVIA", "latitude": 61.8601713, "longitude": 21.5035657}, {"id": "2732", "name": "Alko Mikkeli Graani", "address": "Graanintie 1, 50190 MIKKELI", "latitude": 61.68630779999999, "longitude": 27.2952418}, {"id": "2720", "name": "Alko Mikkeli Ristiina", "address": "Brahentie 14, 52300 RISTIINA", "latitude": 61.5112059, "longitude": 27.2472736}, {"id": "2722", "name": "Alko Mikkeli keskusta Stella", "address": "Savilahdenkatu 8, 50100 MIKKELI", "latitude": 61.68963119999999, "longitude": 27.2736036}, {"id": "2837", "name": "Alko Muhos", "address": "Valtatie 20, 91500 MUHOS", "latitude": 64.8073893, "longitude": 25.9911968}, {"id": "2879", "name": "Alko Muonio", "address": "Lahenrannantie 1, 99300 MUONIO", "latitude": 67.9559879, "longitude": 23.6833626}, {"id": "2479", "name": "Alko Muurame", "address": "Set\u00e4l\u00e4ntie 2, 40950 MUURAME", "latitude": 62.1369234, "longitude": 25.6736604}, {"id": "2224", "name": "Alko Myn\u00e4m\u00e4ki", "address": "Valtakatu 1, 23100 MYN\u00c4M\u00c4KI", "latitude": 60.6842687, "longitude": 21.9892915}, {"id": "2184", "name": "Alko M\u00e4nts\u00e4l\u00e4", "address": "S\u00e4link\u00e4\u00e4ntie 2, 04600 M\u00c4NTS\u00c4L\u00c4", "latitude": 60.6374298, "longitude": 25.3171559}, {"id": "2451", "name": "Alko M\u00e4ntt\u00e4", "address": "Hallituskatu 25, 35800 M\u00c4NTT\u00c4", "latitude": 62.02970059999999, "longitude": 24.6266797}, {"id": "2724", "name": "Alko M\u00e4ntyharju", "address": "Liiketie 1, 52700 M\u00c4NTYHARJU", "latitude": 61.41628660000001, "longitude": 26.8794116}, {"id": "2225", "name": "Alko Naantali", "address": "Tuulensuunkatu 12, 21100 NAANTALI", "latitude": 60.46766969999999, "longitude": 22.0316115}, {"id": "2810", "name": "Alko Nivala", "address": "Toritie 13, 85500 NIVALA", "latitude": 63.92864259999999, "longitude": 24.9694464}, {"id": "2435", "name": "Alko Nokia", "address": "Yritt\u00e4j\u00e4katu 10, 37100 NOKIA", "latitude": 61.4794142, "longitude": 23.5250153}, {"id": "2711", "name": "Alko Nurmes", "address": "Porokyl\u00e4nkatu 21, 75500 NURMES", "latitude": 63.5563055, "longitude": 29.1049463}, {"id": "2180", "name": "Alko Nurmij\u00e4rvi Kirkonkyl\u00e4", "address": "Kauppanummentie 2, 01900 NURMIJ\u00c4RVI", "latitude": 60.4581243, "longitude": 24.8216225}, {"id": "2181", "name": "Alko Nurmij\u00e4rvi Klaukkala Citymarket", "address": "Viirintie 9, 01800 KLAUKKALA", "latitude": 60.37811749999999, "longitude": 24.7586876}, {"id": "2290", "name": "Alko N\u00e4rpi\u00f6", "address": "N\u00e4rpesv\u00e4gen 27, 64200 N\u00c4RPI\u00d6", "latitude": 62.4789358, "longitude": 21.336936}, {"id": "2427", "name": "Alko Orimattila", "address": "Erkontie 16, 16300 ORIMATTILA", "latitude": 60.8050272, "longitude": 25.7303526}, {"id": "2453", "name": "Alko Orivesi", "address": "Keskustie 36, 35300 ORIVESI", "latitude": 61.6784048, "longitude": 24.3568566}, {"id": "2805", "name": "Alko Oulainen", "address": "Oulaistenkatu 15-17, 86300 OULAINEN", "latitude": 64.2682442, "longitude": 24.8288795}, {"id": "2836", "name": "Alko Oulu Haukipudas", "address": "Revontie 8, 90830 HAUKIPUDAS", "latitude": 65.1757599, "longitude": 25.3482239}, {"id": "2829", "name": "Alko Oulu Kaakkuri", "address": "Metsokankaantie 5, 90420 OULU", "latitude": 64.95638389999999, "longitude": 25.5275389}, {"id": "2831", "name": "Alko Oulu Keskusta Pekuri", "address": "Kauppurienkatu 10, 90100 OULU", "latitude": 65.0121085, "longitude": 25.4686555}, {"id": "2838", "name": "Alko Oulu Kiiminki", "address": "Kauppareitti 2, 90900 KIIMINKI", "latitude": 65.1273915, "longitude": 25.7790762}, {"id": "2833", "name": "Alko Oulu Limingantulli", "address": "Nuottasaarentie 1, 90400 OULU", "latitude": 64.99432759999999, "longitude": 25.4617951}, {"id": "2830", "name": "Alko Oulu Linnanmaa", "address": "Kauppalinnankuja 1-3, 90570 OULU", "latitude": 65.0552562, "longitude": 25.4565168}, {"id": "2832", "name": "Alko Oulu Raksila", "address": "Tehtaankatu 1, 90130 OULU", "latitude": 65.0109697, "longitude": 25.4886313}, {"id": "2812", "name": "Alko Oulu Rusko Citymarket", "address": "Laakeritie 4, 90620 OULU", "latitude": 65.03945259999999, "longitude": 25.5506465}, {"id": "2834", "name": "Alko Oulu V\u00e4livainio", "address": "Revonkuja 2, 90530 OULU", "latitude": 65.0302906, "longitude": 25.4695451}, {"id": "2706", "name": "Alko Outokumpu", "address": "Kummunkatu 9, 83500 OUTOKUMPU", "latitude": 62.7265052, "longitude": 29.0133372}, {"id": "2429", "name": "Alko Padasjoki", "address": "Kauppatie 2, 17500 PADASJOKI", "latitude": 61.34922779999999, "longitude": 25.2676635}, {"id": "2217", "name": "Alko Paimio", "address": "Asematie 1, 21530 PAIMIO", "latitude": 60.458105, "longitude": 22.6891746}, {"id": "2826", "name": "Alko Paltamo", "address": "Rinnekuja 2, 88300 PALTAMO", "latitude": 64.4033973, "longitude": 27.8364436}, {"id": "2228", "name": "Alko Parainen Nauvo", "address": "Kirkkom\u00e4ki, 21660 NAUVO", "latitude": 60.1927157, "longitude": 21.9091942}, {"id": "2227", "name": "Alko Parainen keskusta", "address": "Kirkkoesplanadi 32, 21600 PARAINEN", "latitude": 60.30848899999999, "longitude": 22.3075422}, {"id": "2798", "name": "Alko Parikkala", "address": "Parikkalantie 19, 59100 PARIKKALA", "latitude": 61.5572475, "longitude": 29.499833}, {"id": "2437", "name": "Alko Parkano", "address": "Humalankatu 2, 39700 PARKANO", "latitude": 62.00747359999999, "longitude": 23.0121017}, {"id": "2877", "name": "Alko Pello", "address": "Pellontie 23, 95700 PELLO", "latitude": 66.7738411, "longitude": 23.9640811}, {"id": "2730", "name": "Alko Pertunmaa Kuortti", "address": "M\u00e4yr\u00e4tie 1, 19410 KUORTTI", "latitude": 61.4211507, "longitude": 26.4342438}, {"id": "2731", "name": "Alko Pieks\u00e4m\u00e4ki", "address": "Keskuskatu 3, 76100 PIEKS\u00c4M\u00c4KI", "latitude": 62.3015495, "longitude": 27.1610545}, {"id": "2743", "name": "Alko Pielavesi", "address": "Puustellintie 21, 72400 PIELAVESI", "latitude": 63.2336543, "longitude": 26.7559913}, {"id": "2286", "name": "Alko Pietarsaari", "address": "Koulukatu 4, 68600 PIETARSAARI", "latitude": 63.6773937, "longitude": 22.7168715}, {"id": "2487", "name": "Alko Pihtipudas", "address": "Asematie 1, 44800 PIHTIPUDAS", "latitude": 63.36895549999999, "longitude": 25.5850372}, {"id": "2477", "name": "Alko Pirkkala Partola", "address": "Palmrothintie 2, 33960 PIRKKALA", "latitude": 61.4666803, "longitude": 23.720837}, {"id": "2473", "name": "Alko Pirkkala keskusta", "address": "Suupantie 10, 33960 PIRKKALA", "latitude": 61.4659462, "longitude": 23.6431162}, {"id": "2252", "name": "Alko Pori Etel\u00e4v\u00e4yl\u00e4", "address": "Etel\u00e4v\u00e4yl\u00e4 9, 28610 PORI", "latitude": 61.475516, "longitude": 21.7530379}, {"id": "2254", "name": "Alko Pori It\u00e4keskus Prisma", "address": "It\u00e4keskuksenkaari 6, 28130 PORI", "latitude": 61.45566949999999, "longitude": 21.8398117}, {"id": "2257", "name": "Alko Pori Noormarkku", "address": "Finpyyntie 10, 29600 NOORMARKKU", "latitude": 61.591857, "longitude": 21.8702983}, {"id": "2259", "name": "Alko Pori Puuvilla", "address": "Siltapuistokatu 14, 28100 PORI", "latitude": 61.4942005, "longitude": 21.8002832}, {"id": "2251", "name": "Alko Pori keskusta Sokos", "address": "Liisankatu 2-4, 28100 PORI", "latitude": 61.4835929, "longitude": 21.797672}, {"id": "2190", "name": "Alko Porvoo N\u00e4si", "address": "Aleksanterinkaari 1, 06100 PORVOO", "latitude": 60.3870061, "longitude": 25.6502153}, {"id": "2191", "name": "Alko Porvoo Tarmola", "address": "Asentajantie 1, 06150 PORVOO", "latitude": 60.3995996, "longitude": 25.6862026}, {"id": "2304", "name": "Alko Porvoo vanhakaupunki", "address": "V\u00e4likatu 1, 06100 PORVOO", "latitude": 60.3946193, "longitude": 25.6596433}, {"id": "2859", "name": "Alko Posio", "address": "Posiontie 49, 97900 POSIO", "latitude": 66.1123585, "longitude": 28.1577981}, {"id": "2843", "name": "Alko Pudasj\u00e4rvi", "address": "Kauppatie 8, 93100 PUDASJ\u00c4RVI", "latitude": 65.3603123, "longitude": 26.9954222}, {"id": "2808", "name": "Alko Pulkkila", "address": "Pulkkilantie 2 A, 92600 PULKKILA", "latitude": 64.2652578, "longitude": 25.8660449}, {"id": "2827", "name": "Alko Puolanka", "address": "Keskuskatu 2, 89200 PUOLANKA", "latitude": 64.8698957, "longitude": 27.6673562}, {"id": "2721", "name": "Alko Puumala", "address": "Keskustie 19, 52200 PUUMALA", "latitude": 61.52357959999999, "longitude": 28.1781579}, {"id": "2809", "name": "Alko Pyh\u00e4j\u00e4rvi", "address": "Antintie 3, 86800 PYH\u00c4SALMI", "latitude": 63.6823389, "longitude": 25.9801363}, {"id": "2815", "name": "Alko Raahe", "address": "Ollinkalliontie 2, 92120 RAAHE", "latitude": 64.67874499999999, "longitude": 24.486157}, {"id": "2175", "name": "Alko Raasepori Karjaa", "address": "Ratakatu 59, 10300 KARJAA", "latitude": 60.0709683, "longitude": 23.6632059}, {"id": "2173", "name": "Alko Raasepori Tammisaari", "address": "Rautatienkatu 5, 10600 TAMMISAARI", "latitude": 59.9783761, "longitude": 23.4412808}, {"id": "2203", "name": "Alko Raisio Mylly", "address": "Myllynkatu 1005, 21280 RAISIO", "latitude": 60.4907037, "longitude": 22.2016887}, {"id": "2215", "name": "Alko Raisio keskusta", "address": "Voudinkatu 5, 21200 RAISIO", "latitude": 60.4902238, "longitude": 22.170289}, {"id": "2728", "name": "Alko Rantasalmi", "address": "Kyl\u00e4tie 42-44, 58900 RANTASALMI", "latitude": 62.0674922, "longitude": 28.2994211}, {"id": "2858", "name": "Alko Ranua", "address": "Keskustie 1, 97700 RANUA", "latitude": 65.9282221, "longitude": 26.5156338}, {"id": "2265", "name": "Alko Rauma keskusta", "address": "Karjalankatu 5, 26100 RAUMA", "latitude": 61.133027, "longitude": 21.5062492}, {"id": "2269", "name": "Alko Rauma \u00c4yh\u00f6", "address": "\u00c4yh\u00f6nj\u00e4rventie 1, 26100 RAUMA", "latitude": 61.1317625, "longitude": 21.5380324}, {"id": "2408", "name": "Alko Riihim\u00e4ki Atomikortteli", "address": "Voimalankatu 2, 11130 RIIHIM\u00c4KI", "latitude": 60.73264229999999, "longitude": 24.7795332}, {"id": "2415", "name": "Alko Riihim\u00e4ki Merkos", "address": "Merkoksenkatu 5, 11710 RIIHIM\u00c4KI", "latitude": 60.7247679, "longitude": 24.7342093}, {"id": "2857", "name": "Alko Rovaniemi Etel\u00e4keskus", "address": "Teollisuustie 2, 96320 ROVANIEMI", "latitude": 66.49306059999999, "longitude": 25.6845867}, {"id": "2856", "name": "Alko Rovaniemi Saarenkyl\u00e4", "address": "Pulkamontie 1, 96900 SAARENKYL\u00c4", "latitude": 66.51793889999999, "longitude": 25.7577564}, {"id": "2855", "name": "Alko Rovaniemi keskusta", "address": "Koskikatu 25, 96200 ROVANIEMI", "latitude": 66.502726, "longitude": 25.7235964}, {"id": "2481", "name": "Alko Ruovesi", "address": "Ruovedentie 38, 34600 RUOVESI", "latitude": 61.9847958, "longitude": 24.0720513}, {"id": "2483", "name": "Alko Saarij\u00e4rvi", "address": "Torikatu 5 a, 43100 SAARIJ\u00c4RVI", "latitude": 62.70737799999999, "longitude": 25.2567558}, {"id": "2887", "name": "Alko Salla", "address": "Kansantie 4, 98900 SALLA", "latitude": 66.8304502, "longitude": 28.6730839}, {"id": "2232", "name": "Alko Salo Halikko", "address": "Prismantie 2, 24800 HALIKKO", "latitude": 60.39291110000001, "longitude": 23.0828231}, {"id": "2231", "name": "Alko Salo Keskusta", "address": "H\u00e4meentie 24-30, 24240 SALO", "latitude": 60.3899495, "longitude": 23.127256}, {"id": "2234", "name": "Alko Salo Perni\u00f6", "address": "Haarlantie 21, 25500 PERNI\u00d6", "latitude": 60.2060117, "longitude": 23.1125693}, {"id": "2432", "name": "Alko Sastamala Vammala", "address": "Vammalantie 7, 38200 SASTAMALA", "latitude": 61.3335728, "longitude": 22.9256868}, {"id": "2797", "name": "Alko Savitaipale", "address": "Torikatu 6, 54800 SAVITAIPALE", "latitude": 61.1980144, "longitude": 27.6817929}, {"id": "2729", "name": "Alko Savonlinna Kerim\u00e4ki", "address": "Puruvedentie 51, 58200 KERIM\u00c4KI", "latitude": 61.9119266, "longitude": 29.2796824}, {"id": "2716", "name": "Alko Savonlinna Nojanmaa Prisma", "address": "Nojanmaantie 15, 57210 SAVONLINNA", "latitude": 61.8749115, "longitude": 28.9507039}, {"id": "2726", "name": "Alko Savonlinna keskusta", "address": "Olavinkatu 46, 57100 SAVONLINNA", "latitude": 61.86993020000001, "longitude": 28.879333}, {"id": "2288", "name": "Alko Sein\u00e4joki Ideapark", "address": "Suupohjantie 57, 60320 SEIN\u00c4JOKI", "latitude": 62.79229319999999, "longitude": 22.8014136}, {"id": "2287", "name": "Alko Sein\u00e4joki Nurmo Prisma", "address": "Hyllykalliontie 2, 60510 HYLLYKALLIO", "latitude": 62.80603199999999, "longitude": 22.8729636}, {"id": "2289", "name": "Alko Sein\u00e4joki Pohja Minimani", "address": "Tehtaantie 5, 60100 SEIN\u00c4JOKI", "latitude": 62.79002120000001, "longitude": 22.8793561}, {"id": "2272", "name": "Alko Sein\u00e4joki keskusta Megakeskus", "address": "Keskuskatu 3, 60100 SEIN\u00c4JOKI", "latitude": 62.79166739999999, "longitude": 22.8408067}, {"id": "2745", "name": "Alko Siilinj\u00e4rvi", "address": "Toritie 12, 71800 SIILINJ\u00c4RVI", "latitude": 63.0737922, "longitude": 27.6562822}, {"id": "2187", "name": "Alko Sipoo Nikkil\u00e4", "address": "Pornaistentie 2, 04130 SIPOO", "latitude": 60.37649039999999, "longitude": 25.2715172}, {"id": "2193", "name": "Alko Sipoo S\u00f6derkulla", "address": "Rautatiekuja 4, 01150 S\u00d6DERKULLA", "latitude": 60.2978655, "longitude": 25.3293308}, {"id": "2853", "name": "Alko Sodankyl\u00e4", "address": "Haastajantie 1, 99600 SODANKYL\u00c4", "latitude": 67.41404279999999, "longitude": 26.5879003}, {"id": "2233", "name": "Alko Somero", "address": "Turuntie 6, 31400 SOMERO", "latitude": 60.6330733, "longitude": 23.5129098}, {"id": "2822", "name": "Alko Sotkamo", "address": "Kainuuntie 18, 88600 SOTKAMO", "latitude": 64.1307238, "longitude": 28.382995}, {"id": "2738", "name": "Alko Sulkava", "address": "Alanteentie 38, 58700 SULKAVA", "latitude": 61.7875738, "longitude": 28.3702016}, {"id": "2828", "name": "Alko Suomussalmi", "address": "\u00c4mm\u00e4nkatu 2\n, 89600 SUOMUSSALMI", "latitude": 64.8830396, "longitude": 28.9147}, {"id": "2756", "name": "Alko Suonenjoki", "address": "Rautalammintie 15, 77600 SUONENJOKI", "latitude": 62.6256433, "longitude": 27.1178553}, {"id": "2416", "name": "Alko Sysm\u00e4", "address": "S\u00e4rkilahdentie 3, 19700 SYSM\u00c4", "latitude": 61.50211329999999, "longitude": 25.6800233}, {"id": "2263", "name": "Alko S\u00e4kyl\u00e4", "address": "Palomiehentie 9, 27800 S\u00c4KYL\u00c4", "latitude": 61.04716029999999, "longitude": 22.3516584}, {"id": "2847", "name": "Alko Taivalkoski", "address": "Kauppatie 11, 93400 TAIVALKOSKI", "latitude": 65.5756473, "longitude": 28.2430473}, {"id": "2470", "name": "Alko Tampere Hervanta Duo", "address": "Pietil\u00e4nkatu 2, 33720 TAMPERE", "latitude": 61.4509321, "longitude": 23.8512712}, {"id": "2463", "name": "Alko Tampere Kaleva Prisma", "address": "Sammonkatu 75, 33540 TAMPERE", "latitude": 61.4906476, "longitude": 23.8218268}, {"id": "2466", "name": "Alko Tampere Koivistonkyl\u00e4 Prisma", "address": "Lemp\u00e4\u00e4l\u00e4ntie 21, 33820 TAMPERE", "latitude": 61.4678175, "longitude": 23.7769786}, {"id": "2471", "name": "Alko Tampere Lielahti Citymarket", "address": "Harjuntausta 7, 33400 TAMPERE", "latitude": 61.5149522, "longitude": 23.666477}, {"id": "2468", "name": "Alko Tampere Linnainmaa Prisma", "address": "Liikekatu 3, 33580 TAMPERE", "latitude": 61.495743, "longitude": 23.8832849}, {"id": "2461", "name": "Alko Tampere Puutarhakatu", "address": "Puutarhakatu 10, 33210 TAMPERE", "latitude": 61.4997172, "longitude": 23.7559789}, {"id": "2457", "name": "Alko Tampere Ratina", "address": "Vuolteenkatu 1, 33100 TAMPERE", "latitude": 61.4930257, "longitude": 23.7680039}, {"id": "2464", "name": "Alko Tampere Sokos", "address": "H\u00e4meenkatu 21, 33200 TAMPERE", "latitude": 61.49700809999999, "longitude": 23.7580406}, {"id": "2462", "name": "Alko Tampere Stockmann", "address": "H\u00e4meenkatu 4, 33100 TAMPERE", "latitude": 61.4988512, "longitude": 23.7696692}, {"id": "2465", "name": "Alko Tampere Tammela", "address": "Kullervonkatu 9, 33100 TAMPERE", "latitude": 61.50327420000001, "longitude": 23.7784913}, {"id": "2460", "name": "Alko Tampere Tesoma", "address": "Tesomankatu 4, 33310 TAMPERE", "latitude": 61.50536520000001, "longitude": 23.6261726}, {"id": "2472", "name": "Alko Tampere Turtola Citymarket", "address": "Martinpojankatu 4, 33710 TAMPERE", "latitude": 61.47631310000001, "longitude": 23.8389151}, {"id": "2285", "name": "Alko Teuva", "address": "Mikkil\u00e4ntie 12, 64700 TEUVA", "latitude": 62.4871449, "longitude": 21.739164}, {"id": "2875", "name": "Alko Tornio", "address": "L\u00e4nsiranta 10 as 1610, 95400 TORNIO", "latitude": 65.8430199, "longitude": 24.1436944}, {"id": "2213", "name": "Alko Turku Hirvensalo", "address": "Vanha Kakskerrantie 1, 20900 TURKU", "latitude": 60.41840879999999, "longitude": 22.2294056}, {"id": "2202", "name": "Alko Turku It\u00e4harju", "address": "Kalevantie 41, 20520 TURKU", "latitude": 60.44489799999999, "longitude": 22.325466}, {"id": "2204", "name": "Alko Turku Kupittaa", "address": "Uudenmaantie 17, 20700 TURKU", "latitude": 60.4416964, "longitude": 22.2862716}, {"id": "2207", "name": "Alko Turku L\u00e4nsikeskus Citymarket", "address": "Markulantie 150, 20320 TURKU", "latitude": 60.47214759999999, "longitude": 22.2326402}, {"id": "2205", "name": "Alko Turku Manhattan", "address": "Pitk\u00e4m\u00e4enkatu 4, 20250 TURKU", "latitude": 60.45726849999999, "longitude": 22.2359865}, {"id": "2209", "name": "Alko Turku Skanssi", "address": "Skanssinkatu 10, 20730 TURKU", "latitude": 60.4297535, "longitude": 22.3215717}, {"id": "2214", "name": "Alko Turku Tampereentie", "address": "Vanha Tampereentie 108, 20300 TURKU", "latitude": 60.47457719999999, "longitude": 22.286321}, {"id": "2201", "name": "Alko Turku keskusta Kauppahalli", "address": "Eerikinkatu 16 H, 20100 TURKU", "latitude": 60.44953759999999, "longitude": 22.2663824}, {"id": "2208", "name": "Alko Turku keskusta Stockmann", "address": "Yliopistonkatu 22, 20100 TURKU", "latitude": 60.4506183, "longitude": 22.2655103}, {"id": "2206", "name": "Alko Turku keskusta Wiklund", "address": "Kauppiaskatu 9, 20100 TURKU", "latitude": 60.45206949999999, "longitude": 22.2681773}, {"id": "2170", "name": "Alko Tuusula Hyryl\u00e4", "address": "Hyryl\u00e4nkatu 6, 04300 TUUSULA", "latitude": 60.39672399999999, "longitude": 25.019684}, {"id": "2256", "name": "Alko Ulvila", "address": "Vanha Helsingintie 4, 28400 ULVILA", "latitude": 61.4271061, "longitude": 21.8765396}, {"id": "2441", "name": "Alko Urjala", "address": "Tampereentie 1, 31760 URJALA", "latitude": 61.08032309999999, "longitude": 23.5499744}, {"id": "2883", "name": "Alko Utsjoki Karigasniemi", "address": "Yl\u00e4tenontie 24, 99950 KARIGASNIEMI", "latitude": 69.3987211, "longitude": 25.8529233}, {"id": "2889", "name": "Alko Utsjoki Nuorgam", "address": "Nuorgamintie 4298, 99990 NUORGAM", "latitude": 70.0807897, "longitude": 27.865454}, {"id": "2284", "name": "Alko Uusikaarlepyy", "address": "Myllytie 24, 66900 UUSIKAARLEPYY", "latitude": 63.5295465, "longitude": 22.5394642}, {"id": "2221", "name": "Alko Uusikaupunki", "address": "Ketunkalliontie 1, 23500 UUSIKAUPUNKI", "latitude": 60.80511989999999, "longitude": 21.4254311}, {"id": "2841", "name": "Alko Vaala", "address": "Vaalantie 26, 91700 VAALA", "latitude": 64.56003369999999, "longitude": 26.8431777}, {"id": "2773", "name": "Alko Vaalimaa", "address": "Rajahovintie 1, 49930 VAALIMAA", "latitude": 60.60177799999999, "longitude": 27.8380963}, {"id": "2292", "name": "Alko Vaasa Asevelikyl\u00e4 Prisma", "address": "Jukolantie 1, 65300 VAASA", "latitude": 63.10279119999999, "longitude": 21.646666}, {"id": "2293", "name": "Alko Vaasa Kivihaka Citymarket", "address": "Kokkokalliontie 2-6, 65300 VAASA", "latitude": 63.10850000000001, "longitude": 21.6521}, {"id": "2301", "name": "Alko Vaasa Liisanlehto", "address": "Elementtitehtaantie 1, 65380 VAASA", "latitude": 63.0729267, "longitude": 21.6981291}, {"id": "2291", "name": "Alko Vaasa keskusta Citymarket", "address": "Hovioikeudenpuistikko 17, 65100 VAASA", "latitude": 63.0965408, "longitude": 21.6159617}, {"id": "2442", "name": "Alko Valkeakoski", "address": "Valtakatu 9-11, 37600 VALKEAKOSKI", "latitude": 61.266717, "longitude": 24.0276627}, {"id": "2302", "name": "Alko Vantaa Hakunila", "address": "Laukkarinne 4, 01200 VANTAA", "latitude": 60.2785269, "longitude": 25.1051533}, {"id": "2166", "name": "Alko Vantaa H\u00e4meenkyl\u00e4", "address": "Ainontie 1, 01630 VANTAA", "latitude": 60.2719425, "longitude": 24.8036165}, {"id": "2194", "name": "Alko Vantaa Koivuhaka", "address": "Kuriiritie 23-25, 01300 VANTAA", "latitude": 60.2885477, "longitude": 24.9989729}, {"id": "2172", "name": "Alko Vantaa Koivukyl\u00e4 Citymarket", "address": "Ojalehdonkuja 1, 01400 VANTAA", "latitude": 60.3243122, "longitude": 25.0573193}, {"id": "2163", "name": "Alko Vantaa Korso", "address": "Minkkikuja 4, 01450 VANTAA", "latitude": 60.35033900000001, "longitude": 25.0787679}, {"id": "2162", "name": "Alko Vantaa Myyrm\u00e4ki Myyrmanni", "address": "Iskoskuja 3, 01600 VANTAA", "latitude": 60.26014319999999, "longitude": 24.8534582}, {"id": "2164", "name": "Alko Vantaa Pakkala Jumbo", "address": "Vantaanportinkatu 3, 01510 VANTAA", "latitude": 60.2910508, "longitude": 24.9641478}, {"id": "2168", "name": "Alko Vantaa Tammisto Citymarket", "address": "Tammiston Kauppatie 9, 01510 VANTAA", "latitude": 60.27333879999999, "longitude": 24.9727122}, {"id": "2161", "name": "Alko Vantaa Tikkurila", "address": "Peltolantie 1, 01300 VANTAA", "latitude": 60.2940931, "longitude": 25.0317247}, {"id": "2736", "name": "Alko Varkaus", "address": "Kauppakatu 74, 78200 VARKAUS", "latitude": 62.31825420000001, "longitude": 27.8614895}, {"id": "2179", "name": "Alko Vihti Nummela Citymarket", "address": "Tuusankaari 1, 03100 NUMMELA", "latitude": 60.3329629, "longitude": 24.3280497}, {"id": "2485", "name": "Alko Viitasaari", "address": "Pappilantie 14, 44500 VIITASAARI", "latitude": 63.07598230000001, "longitude": 25.8633839}, {"id": "2436", "name": "Alko Virrat", "address": "P\u00e4\u00e4skyntie 13, 34800 VIRRAT", "latitude": 62.2411735, "longitude": 23.7792597}, {"id": "2876", "name": "Alko Ylitornio", "address": "Alkkulanraitti 75, 95600 YLITORNIO", "latitude": 66.3264227, "longitude": 23.6764497}, {"id": "2804", "name": "Alko Ylivieska", "address": "Savarinkatu 9, 84100 YLIVIESKA", "latitude": 64.0604887, "longitude": 24.5561613}, {"id": "2474", "name": "Alko Yl\u00f6j\u00e4rvi", "address": "L\u00e4hdevainiontie 1, 33480 YL\u00d6J\u00c4RVI", "latitude": 61.5638663, "longitude": 23.5937233}, {"id": "2273", "name": "Alko \u00c4ht\u00e4ri", "address": "Oikotie 8, 63700 \u00c4HT\u00c4RI", "latitude": 62.550085, "longitude": 24.0863375}, {"id": "2455", "name": "Alko \u00c4\u00e4nekoski Hirvaskangas", "address": "Suonenjoentie 10, 44250 \u00c4\u00c4NEKOIVISTO", "latitude": 62.5176877, "longitude": 25.6890817}, {"id": "2488", "name": "Alko \u00c4\u00e4nekoski keskusta", "address": "Ty\u00f6skintie 3, 44100 \u00c4\u00c4NEKOSKI", "latitude": 62.60286790000001, "longitude": 25.7248467}, {"id": "329030", "name": "Noutopiste Ametistikauppa", "address": "Luostontie 4, 99555 LUOSTO", "latitude": 67.1564229, "longitude": 26.9155584}, {"id": "334017", "name": "Noutopiste Anssin kauppa", "address": "Miemolantie 8, 36720 AITOO", "latitude": 61.33922020000001, "longitude": 24.4917141}, {"id": "272202", "name": "Noutopiste Anttolan Kone ja Urheilu", "address": "Satamatie 10, 52100 ANTTOLA", "latitude": 61.58362390000001, "longitude": 27.6520013}, {"id": "329028", "name": "Noutopiste Auto- ja konekorjaamo Marjakangas", "address": "Keskustie 15, 85200 ALAVIESKA", "latitude": 64.1683874, "longitude": 24.302644}, {"id": "222701", "name": "Noutopiste BMA Milj\u00f6", "address": "Kauppamiehentie 6, 21710 KORPPOO", "latitude": 60.1626502, "longitude": 21.5618366}, {"id": "217503", "name": "Noutopiste Bar\u00f6sunds Boden", "address": "Valhallantie 20, 10270 BAR\u00d6SUND", "latitude": 59.9766103, "longitude": 23.881714}, {"id": "323005", "name": "Noutopiste Br\u00e4nd\u00f6 Andelshandel", "address": "Br\u00e4nd\u00f6 by, 22920 BR\u00c4ND\u00d6", "latitude": 60.41257169999999, "longitude": 21.0435938}, {"id": "323010", "name": "Noutopiste Caf\u00e9 Lasikello", "address": "Lasitehtaantie 5, 31640 HUMPPILA", "latitude": 60.9415655, "longitude": 23.3655342}, {"id": "228001", "name": "Noutopiste Caf\u00e9 Meteora", "address": "Honkajoentie 14, 64900 ISOJOKI", "latitude": 62.11172020000001, "longitude": 21.9640637}, {"id": "325006", "name": "Noutopiste Caf\u00e9 Silja Marie (Seo Monninkyl\u00e4)", "address": "Meijeritie 2, 07230 MONNINKYL\u00c4", "latitude": 60.4957185, "longitude": 25.5532353}, {"id": "329022", "name": "Noutopiste E. Kotilainen", "address": "Haikolantie 14, 85410 SIEVI", "latitude": 63.9059452, "longitude": 24.5215242}, {"id": "325014", "name": "Noutopiste Em\u00e4salon Kyl\u00e4puoti", "address": "Em\u00e4salontie 715, 06950 EM\u00c4SALO", "latitude": 60.26207199999999, "longitude": 25.6364064}, {"id": "334012", "name": "Noutopiste Evij\u00e4rven Autohuolto", "address": "Voltintie 1, 62500 EVIJ\u00c4RVI", "latitude": 63.36298289999999, "longitude": 23.4559766}, {"id": "248301", "name": "Noutopiste Ev\u00e4spesti Pylk\u00f6nm\u00e4ki", "address": "Keskustie 28, 43440 PYLK\u00d6NM\u00c4KI", "latitude": 62.6680819, "longitude": 24.8057472}, {"id": "324004", "name": "Noutopiste Fixus Isokyr\u00f6", "address": "Pohjankyr\u00f6ntie 139, 61500 ISOKYR\u00d6", "latitude": 63.0009835, "longitude": 22.323376}, {"id": "278101", "name": "Noutopiste Haapasaaren Osuuskauppa", "address": "Haapasaari, 48100 KOTKA", "latitude": 60.2889194, "longitude": 27.1941215}, {"id": "281503", "name": "Noutopiste Hilakivi", "address": "Asematie 11, 86400 VIHANTI", "latitude": 64.48566699999999, "longitude": 24.9933364}, {"id": "328037", "name": "Noutopiste Hotelli-Ravintola Tiilikka", "address": "Kuusitie 2, 73900 RAUTAVAARA", "latitude": 63.4949665, "longitude": 28.2926537}, {"id": "323013", "name": "Noutopiste Hugo Andersson", "address": "M\u00f6rbyv\u00e4gen 1, 22240 HAMMARLAND", "latitude": 60.21849040000001, "longitude": 19.7113794}, {"id": "280801", "name": "Noutopiste Huoltoasema M\u00e4kel\u00e4", "address": "Urheilutie 4, 92500 RANTSILA", "latitude": 64.50591279999999, "longitude": 25.6586371}, {"id": "328012", "name": "Noutopiste IT-L\u00e4hituki", "address": "Roihankatu 12-14, 56800 SIMPELE", "latitude": 61.4322786, "longitude": 29.3525816}, {"id": "323016", "name": "Noutopiste Ini\u00f6 Lanthandel", "address": "Norrby Hamn 9, 23390 INI\u00d6", "latitude": 60.39651050000001, "longitude": 21.3886459}, {"id": "329023", "name": "Noutopiste Jarmix", "address": "Perhontie 11, 69510 HALSUA", "latitude": 63.46160619999999, "longitude": 24.1703393}, {"id": "280102", "name": "Noutopiste JiiPeen valinta", "address": "Poikkitie 19, 69410 SYK\u00c4R\u00c4INEN", "latitude": 63.61647370000001, "longitude": 24.406758}, {"id": "225102", "name": "Noutopiste K-Market Ahlainen", "address": "Ahlaistentie 658, 29700 AHLAINEN", "latitude": 61.6708521, "longitude": 21.6429782}, {"id": "332012", "name": "Noutopiste K-Market Fiskars", "address": "Fiskarsintie 34, 10470 FISKARI", "latitude": 60.13119620000001, "longitude": 23.5436411}, {"id": "323004", "name": "Noutopiste K-Market F\u00f6gl\u00f6butiken", "address": "Tingsv\u00e4gen 6, 22710 F\u00d6GL\u00d6", "latitude": 60.0306325, "longitude": 20.3878854}, {"id": "329027", "name": "Noutopiste K-Market Hailuoto", "address": "Luovontie 150, 90480 HAILUOTO", "latitude": 65.01392229999999, "longitude": 24.7315909}, {"id": "332002", "name": "Noutopiste K-Market Honkajoki", "address": "Karviantie 2, 38950 HONKAJOKI", "latitude": 61.99360959999999, "longitude": 22.2644614}, {"id": "285902", "name": "Noutopiste K-Market Jokitori", "address": "Vanttausj\u00e4rventie 7, 97625 VANTTAUSKOSKI", "latitude": 66.37728059999999, "longitude": 26.6821285}, {"id": "332005", "name": "Noutopiste K-Market J\u00e4mij\u00e4rvi", "address": "J\u00e4mij\u00e4rventie 23, 38800 J\u00c4MIJ\u00c4RVI", "latitude": 61.8195731, "longitude": 22.6921721}, {"id": "248403", "name": "Noutopiste K-Market Kannontori", "address": "Lepp\u00e4l\u00e4nkyl\u00e4ntie 15, 43300 KANNONKOSKI", "latitude": 62.9774782, "longitude": 25.2657065}, {"id": "328036", "name": "Noutopiste K-Market Korpilahti", "address": "Korpilahdentie 13, 41800 KORPILAHTI", "latitude": 62.0155795, "longitude": 25.5594954}, {"id": "328021", "name": "Noutopiste K-Market Kruunu", "address": "Kuusitie 2, 58500 PUNKAHARJU", "latitude": 61.75496069999999, "longitude": 29.392351}, {"id": "325010", "name": "Noutopiste K-Market Kuninkaanherkku", "address": "Suurpellontie 2, 07700 KOSKENKYL\u00c4N SAHA", "latitude": 60.5028327, "longitude": 25.9325223}, {"id": "328032", "name": "Noutopiste K-Market Lohiranta", "address": "Myllytie 1, 72210 TERVO", "latitude": 62.95604470000001, "longitude": 26.7597028}, {"id": "229104", "name": "Noutopiste K-Market Maalahti", "address": "Viaksentie 99, 66140 \u00d6VERMALAX", "latitude": 62.91886700000001, "longitude": 21.6310252}, {"id": "246504", "name": "Noutopiste K-Market Narva", "address": "Tuulikalliontie 47, 37370 NARVA", "latitude": 61.29496690000001, "longitude": 23.5040504}, {"id": "328034", "name": "Noutopiste K-Market Per\u00e4l\u00e4", "address": "Toivakantie 30, 41660 TOIVAKKA", "latitude": 62.0959319, "longitude": 26.0792904}, {"id": "332003", "name": "Noutopiste K-Market Pomeranssi", "address": "Vanhatie 28, 29630 POMARKKU", "latitude": 61.6979218, "longitude": 22.0123522}, {"id": "328024", "name": "Noutopiste K-Market Porkkana", "address": "Asematie 8, 41900 PET\u00c4J\u00c4VESI", "latitude": 62.25587700000001, "longitude": 25.1877915}, {"id": "285303", "name": "Noutopiste K-Market Pyh\u00e4nt\u00e4hti", "address": "Kultakeronkatu 4, 98530 PYH\u00c4TUNTURI", "latitude": 67.0179919, "longitude": 27.2511595}, {"id": "328038", "name": "Noutopiste K-Market Riistaherkku", "address": "Keskustie 15, 71160 RIISTAVESI", "latitude": 62.914069, "longitude": 28.1585137}, {"id": "323019", "name": "Noutopiste K-Market Sauvo", "address": "Timperintie 1, 21570 SAUVO", "latitude": 60.3414262, "longitude": 22.68695}, {"id": "328040", "name": "Noutopiste K-Market Tiilikainen", "address": "Kauppakatu 6, 82600 TOHMAJ\u00c4RVI", "latitude": 62.2247206, "longitude": 30.3310696}, {"id": "227701", "name": "Noutopiste K-Market Veto", "address": "Patruunantie 10 A, 62800 VIMPELI", "latitude": 63.159434, "longitude": 23.8258027}, {"id": "328033", "name": "Noutopiste K-Market Vilja", "address": "Kenraalintie 9, 42300 J\u00c4MS\u00c4NKOSKI", "latitude": 61.91949409999999, "longitude": 25.1735912}, {"id": "334014", "name": "Noutopiste K-Market V\u00f6yri", "address": "V\u00f6yrintie 6 B, 66600 V\u00d6YRI", "latitude": 63.12973539999999, "longitude": 22.2506102}, {"id": "323014", "name": "Noutopiste K-Supermarket Mattssons", "address": "Von Knorringsv\u00e4g 2, 22410 GODBY", "latitude": 60.230262, "longitude": 19.9895928}, {"id": "329026", "name": "Noutopiste K-market Simontori", "address": "Ratatie 1, 95200 SIMO", "latitude": 65.6622615, "longitude": 25.057363}, {"id": "329029", "name": "Noutopiste K-market Utaj\u00e4rvi", "address": "Vanhatie 52, 91600 UTAJ\u00c4RVI", "latitude": 64.75957129999999, "longitude": 26.4202523}, {"id": "285110", "name": "Noutopiste Kaamasen kievari", "address": "Kaamasentie 2855, 99910 KAAMANEN", "latitude": 69.1035011, "longitude": 27.1977036}, {"id": "278102", "name": "Noutopiste Kaunissaaren kauppa", "address": "Kaunissaari, 48100 KOTKA", "latitude": 60.35617790000001, "longitude": 26.7689547}, {"id": "329021", "name": "Noutopiste Kieringin lomakyl\u00e4", "address": "Tuirantie 4, 97390 KIERINKI", "latitude": 67.26798579999999, "longitude": 25.5308722}, {"id": "334015", "name": "Noutopiste Killinj\u00e4tti", "address": "Inkantie 47, 34980 KILLINKOSKI", "latitude": 62.40139009999999, "longitude": 23.8900983}, {"id": "280101", "name": "Noutopiste Kinnulan Parlamentti", "address": "J\u00e4\u00e4joentie 31, 43900 KINNULA", "latitude": 63.3716362, "longitude": 24.9745738}, {"id": "328026", "name": "Noutopiste Kouvon Baari", "address": "Iiti\u00e4ntie 4, 54710 LEMI", "latitude": 61.0621284, "longitude": 27.8094598}, {"id": "334006", "name": "Noutopiste Krono J\u00e4rn", "address": "Rantatie 2, 68500 KRUUNUPYY", "latitude": 63.72780649999999, "longitude": 23.0341014}, {"id": "328006", "name": "Noutopiste Kukka- ja sekatavarapuoti", "address": "Enonkoskentie 7 T, 58175 ENONKOSKI", "latitude": 62.0906256, "longitude": 28.9202346}, {"id": "323006", "name": "Noutopiste Kumlinge Andelshandel", "address": "Kumlingev\u00e4gen 386, 22820 KUMLINGE", "latitude": 60.2587889, "longitude": 20.7779888}, {"id": "227204", "name": "Noutopiste Kuortaneen Kirjakauppa", "address": "Keskustie 30, 63100 KUORTANE", "latitude": 62.8031531, "longitude": 23.5088717}, {"id": "332011", "name": "Noutopiste Kyr\u00f6n Kulta-Kello", "address": "Kyr\u00f6ntie 35, 21800 KYR\u00d6", "latitude": 60.70242949999999, "longitude": 22.7569437}, {"id": "323008", "name": "Noutopiste K\u00f6kar Sk\u00e4rg\u00e5rdsbutik", "address": "Karlby, 22730 K\u00f6kar, 22730 K\u00d6KAR", "latitude": 59.9207081, "longitude": 20.9033522}, {"id": "323003", "name": "Noutopiste Lappo Handelslag", "address": "Lappo by, 22840 LAPPO", "latitude": 60.3166667, "longitude": 20.9833333}, {"id": "323021", "name": "Noutopiste Letkun Puoti", "address": "H\u00e4rk\u00e4tie 341, 31380 LETKU", "latitude": 60.69890279999999, "longitude": 23.7224697}, {"id": "328030", "name": "Noutopiste Lounaskahvila Sara", "address": "Kolmit\u00e4hk\u00e4ntie 3, 58300 SAVONRANTA", "latitude": 62.1732443, "longitude": 29.2072299}, {"id": "323001", "name": "Noutopiste M-Market Houtsk\u00e4r", "address": "N\u00e4sbyv\u00e4gen 178, 21760 HOUTSK\u00c4R", "latitude": 60.222968, "longitude": 21.368188}, {"id": "328007", "name": "Noutopiste M-Market Luhanka", "address": "Rantatie 1, 19950 LUHANKA", "latitude": 61.79637260000001, "longitude": 25.7039486}, {"id": "328025", "name": "Noutopiste M-Market Sukeva", "address": "Sukevantie 16, 74340 SUKEVA", "latitude": 63.86643410000001, "longitude": 27.4183546}, {"id": "332007", "name": "Noutopiste Matboden i Lumparland", "address": "Lumpov\u00e4gen 22, 22630 LUMPARLAND", "latitude": 60.1164782, "longitude": 20.2593046}, {"id": "328018", "name": "Noutopiste Monimesta", "address": "Kes\u00e4lahdentie 37, 59800 KES\u00c4LAHTI", "latitude": 61.8898783, "longitude": 29.8260928}, {"id": "325008", "name": "Noutopiste Myrskyl\u00e4n Savu", "address": "Kyl\u00e4np\u00e4\u00e4ntie 45, 07600 MYRSKYL\u00c4", "latitude": 60.6603732, "longitude": 25.8459459}, {"id": "329031", "name": "Noutopiste Neste Inari", "address": "Menesj\u00e4rventie 1, 99870 INARI", "latitude": 68.9060058, "longitude": 27.013758}, {"id": "226004", "name": "Noutopiste Neste Karvia", "address": "Yl\u00e4-Satakunnantie 12, 39930 KARVIA", "latitude": 62.1325504, "longitude": 22.5599962}, {"id": "334010", "name": "Noutopiste Neste Lillby", "address": "Lillbyv\u00e4gen 161, 68940 LILLBY", "latitude": 63.479457, "longitude": 23.0086518}, {"id": "275602", "name": "Noutopiste Neste Rautalampi", "address": "Jyv\u00e4skyl\u00e4ntie 12, 77700 RAUTALAMPI", "latitude": 62.62536730000001, "longitude": 26.8196288}, {"id": "285109", "name": "Noutopiste Nord1Market", "address": "Sevettij\u00e4rventie 12206, 99940 N\u00c4\u00c4T\u00c4M\u00d6", "latitude": 69.6644443, "longitude": 29.1037784}, {"id": "323024", "name": "Noutopiste N\u00f6t\u00f6boden", "address": "N\u00f6t\u00f6 1, 21680 N\u00d6T\u00d6", "latitude": 59.9554773, "longitude": 21.7602173}, {"id": "328044", "name": "Noutopiste Pekan Kone", "address": "Polvij\u00e4rventie 12-14, 83700 POLVIJ\u00c4RVI", "latitude": 62.8559427, "longitude": 29.3704216}, {"id": "328029", "name": "Noutopiste Pienen Traktorin Puoti", "address": "Rantatie 2, 73460 MUURUVESI", "latitude": 63.01495869999999, "longitude": 28.208106}, {"id": "323018", "name": "Noutopiste Pohojanportti", "address": "Moisiontie 2, 21270 NOUSIAINEN", "latitude": 60.5993711, "longitude": 22.0827701}, {"id": "334008", "name": "Noutopiste P\u00e4lk\u00e4neen Aapiskukko", "address": "Tervapirtintie 7, 36600 P\u00c4LK\u00c4NE", "latitude": 61.3477846, "longitude": 24.256278}, {"id": "201201", "name": "Noutopiste Rantakulman Kahvila-ravintola ja suoramyynti", "address": "Asematie 4, 72600 KEITELE", "latitude": 63.17979849999999, "longitude": 26.3507261}, {"id": "325001", "name": "Noutopiste Rauta-J\u00e4rn \u00d6sterholm", "address": "Lapinj\u00e4rventie 14, 07800 LAPINJ\u00c4RVI", "latitude": 60.62326299999999, "longitude": 26.1979311}, {"id": "324002", "name": "Noutopiste Rauta-Maatalous Oiva Takala", "address": "Alaj\u00e4rventie 13,, 63800 SOINI", "latitude": 62.87441879999999, "longitude": 24.2028153}, {"id": "328008", "name": "Noutopiste Rautanet Konnevesi", "address": "Vainiontie 2, 44300 KONNEVESI", "latitude": 62.6274922, "longitude": 26.2936871}, {"id": "328035", "name": "Noutopiste Ravintola Liiteri", "address": "Huoltotie 2, 74200 VIEREM\u00c4", "latitude": 63.7420871, "longitude": 27.0010815}, {"id": "328043", "name": "Noutopiste Ravintola Puulanaitta", "address": "Hirvensalmentie 21, 52550 HIRVENSALMI", "latitude": 61.6409512, "longitude": 26.7756938}, {"id": "225104", "name": "Noutopiste S-Market Luvia", "address": "Lukkarilantie 1, 29100 LUVIA", "latitude": 61.359767, "longitude": 21.6231407}, {"id": "281502", "name": "Noutopiste S-Market Pyh\u00e4joki", "address": "Kokkolantie 53, 86100 PYH\u00c4JOKI", "latitude": 64.4608891, "longitude": 24.2580554}, {"id": "328039", "name": "Noutopiste Sale Hurissalo", "address": "Hurissalontie 188, 52230 HURISSALO", "latitude": 61.48665750000001, "longitude": 27.8511416}, {"id": "325015", "name": "Noutopiste Sale Karjalohja", "address": "Hakosenkuja 2, 09120 KARJALOHJA", "latitude": 60.2444067, "longitude": 23.7323342}, {"id": "328041", "name": "Noutopiste Sale Koli", "address": "Kolintie 94, 83960 KOLI", "latitude": 63.11388659999999, "longitude": 29.7768243}, {"id": "285310", "name": "Noutopiste Sale Korvatunturi", "address": "Uittotie 1, 98800 SAVUKOSKI", "latitude": 67.29218089999999, "longitude": 28.1572241}, {"id": "226501", "name": "Noutopiste Sale Pyh\u00e4ranta", "address": "Pajam\u00e4entie 3, 23950 PYH\u00c4RANTA", "latitude": 60.95039999999999, "longitude": 21.4427257}, {"id": "286503", "name": "Noutopiste Sale Tervola", "address": "Kurjentie 1, 95300 TERVOLA", "latitude": 66.09140529999999, "longitude": 24.8139796}, {"id": "325011", "name": "Noutopiste Sale Vierum\u00e4ki", "address": "V\u00e4\u00e4ksyntie 5, 19110 VIERUM\u00c4KI", "latitude": 61.1093881, "longitude": 25.9310985}, {"id": "323022", "name": "Noutopiste Sale Yp\u00e4j\u00e4", "address": "Perttulantie 2, 32100 YP\u00c4J\u00c4", "latitude": 60.8037058, "longitude": 23.2807186}, {"id": "332006", "name": "Noutopiste Sandis Saaristokauppa ja -kahvila", "address": "Sandn\u00e4suddintie 372, 10600 TAMMISAARI", "latitude": 59.94139980000001, "longitude": 23.7260502}, {"id": "325002", "name": "Noutopiste Sarina Kulma", "address": "Kirkkotie 175 A4, 07170 PORNAINEN", "latitude": 60.4773169, "longitude": 25.374778}, {"id": "328004", "name": "Noutopiste Sawon Novas Rakennustarvikemyym\u00e4l\u00e4", "address": "Keskitie 12, 71200 TUUSNIEMI", "latitude": 62.80710839999999, "longitude": 28.4970397}, {"id": "323020", "name": "Noutopiste Seglinge Andelshandel", "address": "Seglinge, 22810 SEGLINGE", "latitude": 60.2049172, "longitude": 20.695869}, {"id": "282501", "name": "Noutopiste Seo Otanm\u00e4ki Keisarin Kievari", "address": "Vuorimiehentie 2, 88200 OTANM\u00c4KI", "latitude": 64.1131925, "longitude": 27.1052598}, {"id": "285305", "name": "Noutopiste Seo Pelkosenniemi", "address": "Sodankyl\u00e4ntie 9, 98500 PELKOSENNIEMI", "latitude": 67.10959009999999, "longitude": 27.5169061}, {"id": "332008", "name": "Noutopiste Siikaisten huoltoasema", "address": "Tuorilantie 11, 29810 SIIKAINEN", "latitude": 61.8755342, "longitude": 21.8118554}, {"id": "332009", "name": "Noutopiste Skafferi Ett", "address": "Bromarvv\u00e4gen 1855, 10570 BROMARV", "latitude": 59.98873799999999, "longitude": 23.0329704}, {"id": "323011", "name": "Noutopiste Sottunga Andelshandel", "address": "Sottunga by, 22720 SOTTUNGA", "latitude": 60.13017559999999, "longitude": 20.6668021}, {"id": "329025", "name": "Noutopiste Sy\u00f6tekyl\u00e4n kauppa", "address": "Sy\u00f6tekyl\u00e4ntie 1257, 93280 SY\u00d6TE", "latitude": 65.6470569, "longitude": 27.7004767}, {"id": "325009", "name": "Noutopiste S\u00f6derby-Boden", "address": "Vanha S\u00f6derbyntie 44, 07390 SUURPELLINKI", "latitude": 60.2121264, "longitude": 25.8525973}, {"id": "334005", "name": "Noutopiste S\u00f6dra Vallgrund Handelslag", "address": "Sommar\u00f6sundv\u00e4gen 263, 65930 S\u00d6DRA VALLGRUND", "latitude": 63.1784704, "longitude": 21.2793526}, {"id": "328011", "name": "Noutopiste Tahko Spa", "address": "Keitaankatu 1, 73310 TAHKOVUORI", "latitude": 63.28900840000001, "longitude": 28.0400726}, {"id": "328005", "name": "Noutopiste Taipalsaari Saimaanharjun PC", "address": "Kuhatie 12-14, 54915 SAIMAANHARJU", "latitude": 61.13603109999999, "longitude": 28.101068}, {"id": "332004", "name": "Noutopiste Taukopaikka Lahnaj\u00e4rvi", "address": "Helsingintie 3276, 25420 LAHNAJ\u00c4RVI", "latitude": 60.3785387, "longitude": 23.7080605}, {"id": "328022", "name": "Noutopiste Teboil Joroinen", "address": "Kuopiontie 66, 79600 JOROINEN", "latitude": 62.18264060000001, "longitude": 27.8389486}, {"id": "281501", "name": "Noutopiste Teboil Siikajoki Ruukki", "address": "Pekkalantie 1, 92400 RUUKKI", "latitude": 64.6583435, "longitude": 25.1034819}, {"id": "328002", "name": "Noutopiste Teboil Vesanto", "address": "Keskustie 23, 72300 VESANTO", "latitude": 62.928359, "longitude": 26.4029432}, {"id": "222101", "name": "Noutopiste Tee Tee Palvelut", "address": "Vinkkil\u00e4ntie 20, 23200 VINKKIL\u00c4", "latitude": 60.6869652, "longitude": 21.7150792}, {"id": "332013", "name": "Noutopiste Teijon Kyl\u00e4kauppa", "address": "Teijontie 67, 25570 TEIJO", "latitude": 60.25385489999999, "longitude": 22.9562418}, {"id": "332010", "name": "Noutopiste Tiiranta", "address": "Tiirantie 1, 25630 S\u00c4RKISALO", "latitude": 60.11461909999999, "longitude": 22.9536412}, {"id": "219005", "name": "Noutopiste Tirmon Saaristokeskus", "address": "Tirmontie 611, 07360 TIRMO", "latitude": 60.24770059999999, "longitude": 25.8969977}, {"id": "217702", "name": "Noutopiste Tonin kioski", "address": "Siuntiontie 504, 02580 SIUNTIO", "latitude": 60.138226, "longitude": 24.2265594}, {"id": "332001", "name": "Noutopiste Ut\u00f6 Handel", "address": "Ut\u00f6 Byv\u00e4g 31, 21740 UT\u00d6", "latitude": 59.7814595, "longitude": 21.370747}, {"id": "328042", "name": "Noutopiste Uukuniemen kyl\u00e4kauppa", "address": "Niukkalantie 1465, 59720 UUKUNIEMI", "latitude": 61.7538855, "longitude": 29.8964782}, {"id": "285107", "name": "Noutopiste Uulan S\u00e4\u00e4st\u00f6", "address": "Utsjoentie 1, 99980 UTSJOKI", "latitude": 69.8935862, "longitude": 27.0148551}, {"id": "325003", "name": "Noutopiste VAn kyl\u00e4puoti", "address": "Uudensillantie 2 A1, 49760 SUUR-MIEHIKK\u00c4L\u00c4", "latitude": 60.7229075, "longitude": 27.5688973}, {"id": "334013", "name": "Noutopiste VKV Service", "address": "K\u00e4rjentie 3, 61100 PER\u00c4SEIN\u00c4JOKI", "latitude": 62.56041370000001, "longitude": 23.0629657}, {"id": "325004", "name": "Noutopiste Veikon Kone Virolahti", "address": "It\u00e4tie 5, 49900 VIROLAHTI", "latitude": 60.58502429999999, "longitude": 27.7112753}, {"id": "325007", "name": "Noutopiste Vuolenkosken kyl\u00e4kauppa", "address": "Vuolenkoskentie 1471, 19160 HUUTOT\u00d6YRY", "latitude": 61.0835988, "longitude": 26.1784399}, {"id": "323002", "name": "Noutopiste V\u00e5rd\u00f6 N\u00e4rbutik Ab", "address": "Drottning Kristinas gata 19, 22550 V\u00c5RD\u00d6", "latitude": 60.2459422, "longitude": 20.3513269}, {"id": "328027", "name": "Noutopiste Wanha Osula", "address": "Keskustie 72, 51600 HAUKIVUORI", "latitude": 62.02378129999999, "longitude": 27.2057338}, {"id": "227202", "name": "Noutopiste Ylistaron Kirjakauppa", "address": "Kaukolanraitti 40, 61400 YLISTARO", "latitude": 62.9460084, "longitude": 22.5268144}, {"id": "280201", "name": "Noutopiste\u00a0Ypp\u00e4rin Autohuolto", "address": "Kokkolantie 1116, 86170 YPP\u00c4RI", "latitude": 64.4017251, "longitude": 24.0876459}]